[
            {
                "Store_type": "2",
                "address": "游仙区六里村华兴南街8号",
                "avgPrice": "20",
                "avgScore": "4.8",
                "hasFoodSafeInfo": "TRUE",
                "latitude": "31.484039",
                "longitude": "104.77077",
                "name": "爱达乐（绵阳六里村店）",
                "openTime": "周一至周日 07:30-21:30",
                "phone": "0816-2297677",
                "poiId": "4615402"
            },
            {
                "Store_type": "1",
                "address": "涪城区跃进路北段83号（长虹世纪城西二期31幢2-2号）",
                "avgPrice": "41",
                "avgScore": "5",
                "hasFoodSafeInfo": "TRUE",
                "latitude": "31.492213",
                "longitude": "104.741776",
                "name": "大味美蛙鱼头火锅（高水店）",
                "openTime": "周一至周日 10:00-22:00",
                "phone": "0816-2287979/13060173677",
                "poiId": "41955549"
            },
            {
                "Store_type": "1",
                "address": "江油市花园路中段涪江丽苑1期33号",
                "avgPrice": "47",
                "avgScore": "5",
                "hasFoodSafeInfo": "TRUE",
                "latitude": "31.782206",
                "longitude": "104.750316",
                "name": "顶呱呱水煮牛蛙",
                "openTime": "周一至周日 10:00-13:00 16:00-21:30",
                "phone": "0816-3222678/13990110351",
                "poiId": "2849942"
            },
            {
                "Store_type": "2",
                "address": "涪城区跃进路北段高水虹高市场3幢77号（长虹第五生活区西门对面）",
                "avgPrice": "50",
                "avgScore": "5",
                "hasFoodSafeInfo": "TRUE",
                "latitude": "31.493208",
                "longitude": "104.740738",
                "name": "好滋味糕点房",
                "openTime": "周一至周日 06:30-24:00  2020-01-22至2020-01-27 休息",
                "phone": "18683675026/13890104154",
                "poiId": "66225165"
            },
            {
                "Store_type": "2",
                "address": "涪城区跃进路长虹国际城1期底商",
                "avgPrice": "12",
                "avgScore": "5",
                "hasFoodSafeInfo": "TRUE",
                "latitude": "31.468928",
                "longitude": "104.74173",
                "name": "原饼道",
                "openTime": "周一至周日 11:30-20:30  2020-01-23至2020-01-29 休息",
                "phone": "18683672770",
                "poiId": "40689052"
            },
            {
                "Store_type": "3",
                "address": "游仙区仙童街与游仙东路交口东南（乐府娱乐会所正对面）",
                "avgPrice": "48",
                "avgScore": "5",
                "hasFoodSafeInfo": "TRUE",
                "latitude": "31.495797",
                "longitude": "104.776005",
                "name": "三碗不过岗（芙蓉金城店）",
                "openTime": "周一至周日 09:00-14:00 17:00-21:00  2020-01-26至2020-02-08 休息",
                "phone": "0816-2380999",
                "poiId": "5432854"
            },
            {
                "Store_type": "12",
                "address": "涪城区中元广场后面双碑南路6号",
                "avgPrice": "15",
                "avgScore": "5",
                "hasFoodSafeInfo": "TRUE",
                "latitude": "31.461844",
                "longitude": "104.693235",
                "name": "周小弟冒菜馆",
                "openTime": "周一至周日 10:00-22:00  2020-01-24至2020-01-30 休息",
                "phone": "15983608672",
                "poiId": "66900936"
            },
            {
                "Store_type": "2",
                "address": "三台县北泉路勇华丽景家家福超市旁",
                "avgPrice": "15",
                "avgScore": "5",
                "hasFoodSafeInfo": "TRUE",
                "latitude": "31.098839",
                "longitude": "105.08875",
                "name": "卡蜜儿蛋糕",
                "openTime": "周一至周日 08:00-21:30",
                "phone": "13890151752",
                "poiId": "50295171"
            },
            {
                "Store_type": "2",
                "address": "游仙区一环路东段183号",
                "avgPrice": "10",
                "avgScore": "5",
                "hasFoodSafeInfo": "TRUE",
                "latitude": "31.476403",
                "longitude": "104.770248",
                "name": "金莎利",
                "openTime": "周一至周日 06:00-22:00",
                "phone": "13990185331/18780307175",
                "poiId": "50602881"
            },
            {
                "Store_type": "9",
                "address": "涪城区金菊街32号",
                "avgPrice": "53",
                "avgScore": "4.5",
                "hasFoodSafeInfo": "TRUE",
                "latitude": "31.455876",
                "longitude": "104.721678",
                "name": "味之绝美蛙鱼头（花园店）",
                "openTime": "周一至周日 10:00-22:00  2020-01-24 10:00-14:00 2020-01-25 休息",
                "phone": "0816-2969686",
                "poiId": "51135547"
            },
            {
                "Store_type": "15",
                "address": "江油市中坝镇火炮街81号",
                "avgPrice": "10",
                "avgScore": "4.4",
                "hasFoodSafeInfo": "TRUE",
                "latitude": "31.776154",
                "longitude": "104.743917",
                "name": "小小木屋休闲小吃",
                "openTime": "周一至周日 08:30-21:30",
                "phone": "13402385556",
                "poiId": "75934346"
            },
            {
                "Store_type": "4",
                "address": "江油市中坝镇平等街77号（汇星超市旁）",
                "avgPrice": "7",
                "avgScore": "4.6",
                "hasFoodSafeInfo": "TRUE",
                "latitude": "31.773503",
                "longitude": "104.745298",
                "name": "紫香湾（一店）",
                "openTime": "周一至周日 09:30-20:30",
                "phone": "18281910800",
                "poiId": "40806201"
            },
            {
                "Store_type": "4",
                "address": "涪城区临园路东段74号凯德广场二期负一楼（富乐路 科委立交桥）",
                "avgPrice": "21",
                "avgScore": "4.6",
                "hasFoodSafeInfo": "TRUE",
                "latitude": "31.464431",
                "longitude": "104.74159",
                "name": "鲜芋仙（凯德广场二期店）",
                "openTime": "周一至周日 10:00-22:00",
                "phone": "0816-2966196",
                "poiId": "5895718"
            },
            {
                "Store_type": "2",
                "address": "涪城区长虹大道红星小区17-4号",
                "avgPrice": "10",
                "avgScore": "4.8",
                "hasFoodSafeInfo": "TRUE",
                "latitude": "31.431722",
                "longitude": "104.770914",
                "name": "依利来",
                "openTime": "周一至周日 10:00-22:00",
                "phone": "15008198098",
                "poiId": "4870749"
            },
            {
                "Store_type": "2",
                "address": "涪城区南山路43号",
                "avgPrice": "10",
                "avgScore": "5",
                "hasFoodSafeInfo": "TRUE",
                "latitude": "31.444433",
                "longitude": "104.773394",
                "name": "喜利来糕点屋",
                "openTime": "周一至周日 06:00-23:30",
                "phone": "15351259886",
                "poiId": "42932765"
            },
            {
                "Store_type": "3",
                "address": "涪城区花园路9号万达广场3楼",
                "avgPrice": "59",
                "avgScore": "4.1",
                "hasFoodSafeInfo": "TRUE",
                "latitude": "31.453618",
                "longitude": "104.720486",
                "name": "德香苑北京烤鸭（绵阳万达店）",
                "openTime": "周一至周日 10:00-22:00  2020-02-09至2020-02-20 休息",
                "phone": "0816-2370983/18608098393",
                "poiId": "2501499"
            },
            {
                "Store_type": "1",
                "address": "涪城区剑南路西段5-3号（富临东方广场商铺）",
                "avgPrice": "50",
                "avgScore": "4.3",
                "hasFoodSafeInfo": "FALSE",
                "latitude": "31.467721",
                "longitude": "104.74953",
                "name": "东方红火锅",
                "openTime": "周一至周日 全天",
                "phone": "0816-2857888",
                "poiId": "6925724"
            },
            {
                "Store_type": "2",
                "address": "涪城区涪涪城路193号大西门",
                "avgPrice": "20",
                "avgScore": "4.1",
                "hasFoodSafeInfo": "TRUE",
                "latitude": "31.453901",
                "longitude": "104.750969",
                "name": "金诺瑞（大西门店）",
                "openTime": "周一至周日 07:00-21:30",
                "phone": "0816-2245171",
                "poiId": "4165655"
            },
            {
                "Store_type": "4",
                "address": "涪城区花园路9号万达广场1楼1056号",
                "avgPrice": "70",
                "avgScore": "4",
                "hasFoodSafeInfo": "TRUE",
                "latitude": "31.45441",
                "longitude": "104.71928",
                "name": "哈根达斯（绵阳涪城万达店）",
                "openTime": "周一至周日 10:00-22:00",
                "phone": "0816-2358906",
                "poiId": "3311047"
            },
            {
                "Store_type": "1",
                "address": "涪城区滨河北路东段南河体育中心北门安江名园2栋1楼2号",
                "avgPrice": "93",
                "avgScore": "4.3",
                "hasFoodSafeInfo": "TRUE",
                "latitude": "31.4493",
                "longitude": "104.75063",
                "name": "东颖龙肥牛王",
                "openTime": "周一至周日 10:00-22:00  2020-01-24至2020-01-30 休息",
                "phone": "0816-2217766",
                "poiId": "2255630"
            },
            {
                "Store_type": "10",
                "address": "涪城区凯德广场一期5层",
                "avgPrice": "26",
                "avgScore": "3.9",
                "hasFoodSafeInfo": "TRUE",
                "latitude": "31.464371",
                "longitude": "104.741286",
                "name": "答啤仰阿莎苗家大骨米线",
                "openTime": "周一至周日 10:00-21:00  2020-01-24至2020-01-25 休息",
                "phone": "13882087835",
                "poiId": "52020131"
            },
            {
                "Store_type": "10",
                "address": "涪城区临园路东段74号凯德广场5楼",
                "avgPrice": "30",
                "avgScore": "3.4",
                "hasFoodSafeInfo": "TRUE",
                "latitude": "31.46389",
                "longitude": "104.741664",
                "name": "阿香米线（绵阳凯德店）",
                "openTime": "周一至周日 10:00-21:30  2020-01-24 10:00-17:00",
                "phone": "17721115234",
                "poiId": "42171683"
            },
            {
                "Store_type": "6",
                "address": "涪城区花园路万达3F",
                "avgPrice": "73",
                "avgScore": "3.6",
                "hasFoodSafeInfo": "TRUE",
                "latitude": "31.453045",
                "longitude": "104.719873",
                "name": "韩悦烤肉（涪城万达店）",
                "openTime": "周一至周日 10:00-22:00",
                "phone": "0816-2355599",
                "poiId": "2423226"
            },
            {
                "Store_type": "1",
                "address": "涪城区临园路西段14号（花园小区对面商业银行旁）",
                "avgPrice": "64",
                "avgScore": "4.3",
                "hasFoodSafeInfo": "TRUE",
                "latitude": "31.460048",
                "longitude": "104.725555",
                "name": "满江红火锅（花园店）",
                "openTime": "周一至周日 10:30-22:00  2020-01-23至2020-01-25 休息",
                "phone": "0816-2377288",
                "poiId": "2255378"
            },
            {
                "Store_type": "2",
                "address": "游仙区民安路128号欧家坝小区1区22栋11号",
                "avgPrice": "70",
                "avgScore": "5",
                "hasFoodSafeInfo": "TRUE",
                "latitude": "31.504214",
                "longitude": "104.784832",
                "name": "美味鲜蛋糕",
                "openTime": "周一至周日 05:00-23:30",
                "phone": "13628085855",
                "poiId": "52534431"
            },
            {
                "Store_type": "1",
                "address": "江油市渝州路151-177号（近恒丰园小区）",
                "avgPrice": "40",
                "avgScore": "4.2",
                "hasFoodSafeInfo": "TRUE",
                "latitude": "31.76916",
                "longitude": "104.739099",
                "name": "巴将军火锅",
                "openTime": "周一至周日 09:00-23:00  2020-01-24至2020-01-25 休息",
                "phone": "0816-3366888",
                "poiId": "2255988"
            },
            {
                "Store_type": "2",
                "address": "涪城区花园南街56号1层26号",
                "avgPrice": "104",
                "avgScore": "4",
                "hasFoodSafeInfo": "TRUE",
                "latitude": "31.45505",
                "longitude": "104.721485",
                "name": "元祖食品(绵阳万达店)",
                "openTime": "周一至周日 08:00-21:00",
                "phone": "0816-2758790/18084886025",
                "poiId": "41262432"
            },
            {
                "Store_type": "16",
                "address": "涪城区长虹大道北段67号，瑞仕名都二楼",
                "avgPrice": "50",
                "avgScore": "4.3",
                "hasFoodSafeInfo": "TRUE",
                "latitude": "31.489593",
                "longitude": "104.738398",
                "name": "芭夯兔（高水店）",
                "openTime": "周一至周日 09:00-22:00  2020-01-24至2020-01-26 休息",
                "phone": "0816-2269767",
                "poiId": "40010919"
            },
            {
                "Store_type": "17",
                "address": "涪城区长虹大道南段70号（御营坝血站门口）",
                "avgPrice": "48",
                "avgScore": "4.5",
                "hasFoodSafeInfo": "TRUE",
                "latitude": "31.45012",
                "longitude": "104.74475",
                "name": "芭夯兔汤锅（御营店）",
                "openTime": "周一至周日 09:00-22:00  2020-01-24至2020-01-26 休息",
                "phone": "0816-2170277",
                "poiId": "6031919"
            },
            {
                "Store_type": "12",
                "address": "江油市三合镇迎宾路三合一中教师楼1幢1楼25号",
                "avgPrice": "33",
                "avgScore": "4.4",
                "hasFoodSafeInfo": "TRUE",
                "latitude": "31.782424",
                "longitude": "104.767712",
                "name": "三颗米烧烤冒菜",
                "openTime": "周一至周日 17:00-02:00",
                "phone": "13118189003",
                "poiId": "6392856"
            },
            {
                "Store_type": "3",
                "address": "涪城区长虹大道北段58号",
                "avgPrice": "50",
                "avgScore": "5",
                "hasFoodSafeInfo": "TRUE",
                "latitude": "31.489219",
                "longitude": "104.739955",
                "name": "让鸭脑壳飞（高水店）",
                "openTime": "周一至周日 10:00-23:00",
                "phone": "0816-2736822/15984652979",
                "poiId": "6738176"
            },
            {
                "Store_type": "11",
                "address": "三台县新西街仟百度烤肉楼下",
                "avgPrice": "16",
                "avgScore": "4.2",
                "hasFoodSafeInfo": "TRUE",
                "latitude": "31.088008",
                "longitude": "105.089502",
                "name": "圣多美汉堡炸鸡（新西街店）",
                "openTime": "周一至周日 09:00-23:00",
                "phone": "0816-5331066/5223365/18081257277",
                "poiId": "6838764"
            },
            {
                "Store_type": "7",
                "address": "涪城区临园路东段74号凯德广场二期5楼（会仙路富乐路科委立交）",
                "avgPrice": "77",
                "avgScore": "4",
                "hasFoodSafeInfo": "TRUE",
                "latitude": "31.464267",
                "longitude": "104.741689",
                "name": "布拉诺意大利餐厅（凯德店）",
                "openTime": "周一至周日 11:00-21:00  2020-02-16至2020-02-25 休息",
                "phone": "0816-2751199",
                "poiId": "42899673"
            },
            {
                "Store_type": "2",
                "address": "江油市中坝镇金轮中路238号",
                "avgPrice": "20",
                "avgScore": "3.8",
                "hasFoodSafeInfo": "TRUE",
                "latitude": "31.774918",
                "longitude": "104.745755",
                "name": "兰兰糕点城（金轮干道总店）",
                "openTime": "周一至周日 09:00-21:00",
                "phone": "0816-3263744/13981146653",
                "poiId": "40715053"
            },
            {
                "Store_type": "9",
                "address": "涪城区红桥路嘉来板桥7栋1-3号",
                "avgPrice": "36",
                "avgScore": "4.5",
                "hasFoodSafeInfo": "FALSE",
                "latitude": "31.432007",
                "longitude": "104.777",
                "name": "龙缘酸汤乌鱼府",
                "openTime": "周一至周日 09:30-21:00",
                "phone": "0816-6395328",
                "poiId": "5090236"
            },
            {
                "Store_type": "2",
                "address": "涪城区新华西街55号",
                "avgPrice": "13",
                "avgScore": "4.3",
                "hasFoodSafeInfo": "TRUE",
                "latitude": "31.456925",
                "longitude": "104.72374",
                "name": "华香园蛋糕",
                "openTime": "周一至周日 07:00-22:00",
                "phone": "18681675724/13219980750",
                "poiId": "42452122"
            },
            {
                "Store_type": "3",
                "address": "游仙区芙蓉汉城38-9号",
                "avgPrice": "51",
                "avgScore": "4.5",
                "hasFoodSafeInfo": "TRUE",
                "latitude": "31.47468",
                "longitude": "104.77075",
                "name": "玉江清汤黄牛肉合恩餐饮",
                "openTime": "周一至周日 09:00-21:30  2020-01-24至2020-01-26 休息",
                "phone": "0816-5028808",
                "poiId": "42722716"
            },
            {
                "Store_type": "1",
                "address": "涪城区西科大新区烧烤广场内（蒋记干锅）",
                "avgPrice": "38",
                "avgScore": "4.6",
                "hasFoodSafeInfo": "FALSE",
                "latitude": "31.540702",
                "longitude": "104.701112",
                "name": "重庆土灶老火锅",
                "openTime": "周一至周日 09:30-23:00",
                "phone": "18608080205",
                "poiId": "52211032"
            },
            {
                "Store_type": "1",
                "address": "江油市渝州路137号恒丰园",
                "avgPrice": "41",
                "avgScore": "4.2",
                "hasFoodSafeInfo": "TRUE",
                "latitude": "31.769341",
                "longitude": "104.7396",
                "name": "刘一手火锅（恒丰店）",
                "openTime": "周一至周日 09:00-24:00  2020-01-24至2020-01-26 休息",
                "phone": "0816-3369998/15351232258",
                "poiId": "6362780"
            },
            {
                "Store_type": "3",
                "address": "涪城区双碑中街57号（粥天下旁）",
                "avgPrice": "46",
                "avgScore": "4.2",
                "hasFoodSafeInfo": "TRUE",
                "latitude": "31.468187",
                "longitude": "104.688219",
                "name": "干锅先生（高新店）",
                "openTime": "周一至周日 10:00-22:00",
                "phone": "0816-2538946",
                "poiId": "2255670"
            },
            {
                "Store_type": "1",
                "address": "涪城区花园北街7号",
                "avgPrice": "46",
                "avgScore": "3.6",
                "hasFoodSafeInfo": "TRUE",
                "latitude": "31.456957",
                "longitude": "104.720956",
                "name": "杨肥肠小火锅（花园店）",
                "openTime": "周一至周日 10:00-04:00",
                "phone": "0816-2373511",
                "poiId": "2852346"
            },
            {
                "Store_type": "3",
                "address": "涪城区荷花东街39号（桂园雅居河堤边）",
                "avgPrice": "47",
                "avgScore": "4.1",
                "hasFoodSafeInfo": "TRUE",
                "latitude": "31.450151",
                "longitude": "104.716133",
                "name": "老俵肥肠鸡（花园总店）",
                "openTime": "周一至周日 10:00-21:30",
                "phone": "0816-2397899",
                "poiId": "2255563"
            },
            {
                "Store_type": "4",
                "address": "涪城区公园路1号茂业百货二楼中庭",
                "avgPrice": "21",
                "avgScore": "3.7",
                "hasFoodSafeInfo": "TRUE",
                "latitude": "31.460882",
                "longitude": "104.751358",
                "name": "鲜芋仙（茂业店）",
                "openTime": "周一至周日 10:00-22:00",
                "phone": "0816-2557660",
                "poiId": "4610483"
            },
            {
                "Store_type": "3",
                "address": "涪城区绵兴东路86号",
                "avgPrice": "48",
                "avgScore": "4.1",
                "hasFoodSafeInfo": "TRUE",
                "latitude": "31.46581",
                "longitude": "104.68457",
                "name": "柒味餐饮（高新店）",
                "openTime": "周一至周日 09:00-14:30 17:00-22:00  2020-01-24至2020-01-25 休息",
                "phone": "0816-2589188",
                "poiId": "6668642"
            },
            {
                "Store_type": "3",
                "address": "涪城区一环路北段37号",
                "avgPrice": "41",
                "avgScore": "3.8",
                "hasFoodSafeInfo": "TRUE",
                "latitude": "31.484349",
                "longitude": "104.738053",
                "name": "周扒皮柴火鸡",
                "openTime": "周一至周日 10:00-22:00  2020-01-24至2020-01-26 休息",
                "phone": "0816-3334618",
                "poiId": "41969144"
            },
            {
                "Store_type": "1",
                "address": "涪城区涪御旗路21-7号",
                "avgPrice": "45",
                "avgScore": "4",
                "hasFoodSafeInfo": "TRUE",
                "latitude": "31.456292",
                "longitude": "104.735699",
                "name": "乐山胖孃串串香",
                "openTime": "周一至周日 10:00-02:00",
                "phone": "15984656200",
                "poiId": "4063178"
            },
            {
                "Store_type": "1",
                "address": "游仙区东津路26号（富乐中学旁）",
                "avgPrice": "45",
                "avgScore": "3.8",
                "hasFoodSafeInfo": "TRUE",
                "latitude": "31.464091",
                "longitude": "104.773227",
                "name": "天英莊火锅王（东津路店）",
                "openTime": "周一至周日 11:00-22:30",
                "phone": "0816-2960288",
                "poiId": "4704435"
            },
            {
                "Store_type": "",
                "address": "涪城区花园路9号万达广场5幢1楼3号",
                "avgPrice": "15",
                "avgScore": "4.2",
                "hasFoodSafeInfo": "TRUE",
                "latitude": "31.453901",
                "longitude": "104.721224",
                "name": "再遇上善本味寿司",
                "openTime": "\"周一至周五 11:00-13:30 17:00-21:30  周六\t周日 11:00-21:30  2020-01-24至2020-01-28 休息\"",
                "phone": "0816-2213301/18683758525",
                "poiId": "51775286"
            },
            {
                "Store_type": "3",
                "address": "涪城区八角南路富临山庄后大门柏杨宾馆一楼",
                "avgPrice": "46",
                "avgScore": "4.2",
                "hasFoodSafeInfo": "TRUE",
                "latitude": "31.483035",
                "longitude": "104.683307",
                "name": "有盐有味羊蝎子",
                "openTime": "周一至周日 11:00-22:00  2020-01-24至2020-01-30 休息",
                "phone": "18780345898",
                "poiId": "68314839"
            },
            {
                "Store_type": "15",
                "address": "游仙区一环路东段135号海上海水晶酒店1楼",
                "avgPrice": "111",
                "avgScore": "4.3",
                "hasFoodSafeInfo": "TRUE",
                "latitude": "31.472203",
                "longitude": "104.767468",
                "name": "海上海水晶酒店豆捞工坊",
                "openTime": "周一至周日 09:00-14:00 16:00-21:00",
                "phone": "0816-2727666",
                "poiId": "4468757"
            },
            {
                "Store_type": "1",
                "address": "涪城区临园路东段凯德广场负1楼",
                "avgPrice": "41",
                "avgScore": "4.2",
                "hasFoodSafeInfo": "TRUE",
                "latitude": "31.46417",
                "longitude": "104.74197",
                "name": "花半里美食火锅（凯德广场店）",
                "openTime": "周一至周日 10:00-22:00  2020-01-24至2020-01-25 休息",
                "phone": "15984671363",
                "poiId": "110880412"
            },
            {
                "Store_type": "3",
                "address": "涪城区跃进路北段21号",
                "avgPrice": "25",
                "avgScore": "4.1",
                "hasFoodSafeInfo": "TRUE",
                "latitude": "31.48061",
                "longitude": "104.74192",
                "name": "金穗麦佳鸡汁水饺（平政店）",
                "openTime": "周一至周日 10:00-22:00",
                "phone": "0816-2686772",
                "poiId": "2855015"
            },
            {
                "Store_type": "1",
                "address": "涪城区火炬西街丽府e家酒店隔壁1楼",
                "avgPrice": "47",
                "avgScore": "4",
                "hasFoodSafeInfo": "TRUE",
                "latitude": "31.469483",
                "longitude": "104.676107",
                "name": "老鬼火锅（高新店）",
                "openTime": "周一至周日 10:00-22:00  2020-01-24至2020-01-26 休息",
                "phone": "0816-2537977",
                "poiId": "962389"
            },
            {
                "Store_type": "2",
                "address": "涪城区火炬南街48号金域丽江11幢1栋9号（塞纳阳光海天师雨幼儿园对面）",
                "avgPrice": "15",
                "avgScore": "4",
                "hasFoodSafeInfo": "TRUE",
                "latitude": "31.457876",
                "longitude": "104.694686",
                "name": "茉茜娅（绵阳店）",
                "openTime": "周一至周日 07:00-22:00",
                "phone": "18781126713/13778073138",
                "poiId": "51900868"
            },
            {
                "Store_type": "11",
                "address": "涪城区临圆路东段72号新益大厦一楼",
                "avgPrice": "65",
                "avgScore": "4.5",
                "hasFoodSafeInfo": "TRUE",
                "latitude": "31.463389",
                "longitude": "104.742966",
                "name": "必胜客（新世界店）",
                "openTime": "周一至周日 07:30-22:00",
                "phone": "0816-2341790",
                "poiId": "2255159"
            },
            {
                "Store_type": "9",
                "address": "涪城区长虹大道北段58号",
                "avgPrice": "59",
                "avgScore": "4.3",
                "hasFoodSafeInfo": "TRUE",
                "latitude": "31.48919",
                "longitude": "104.74035",
                "name": "6秒斑鱼庄（高水店）",
                "openTime": "周一至周日 10:00-22:00",
                "phone": "0816-6013666/13778157689",
                "poiId": "2255574"
            },
            {
                "Store_type": "3",
                "address": "涪城区南湖街板桥小区虹桥西路公交站",
                "avgPrice": "59",
                "avgScore": "4.3",
                "hasFoodSafeInfo": "TRUE",
                "latitude": "31.431631",
                "longitude": "104.777094",
                "name": "鲜塘宴（虹桥西路店）",
                "openTime": "周一至周日 09:00-21:00",
                "phone": "0816-2213556",
                "poiId": "2536642"
            },
            {
                "Store_type": "6",
                "address": "涪城区双碑中街58号-2-28（西都生活广场A区）",
                "avgPrice": "26",
                "avgScore": "4.1",
                "hasFoodSafeInfo": "TRUE",
                "latitude": "31.470201",
                "longitude": "104.69039",
                "name": "让猪手飞杨程猪手（高新店）",
                "openTime": "周一至周日 09:00-21:00  2020-01-24至2020-01-30 休息",
                "phone": "13981175296",
                "poiId": "40977582"
            },
            {
                "Store_type": "15",
                "address": "涪城区万达广场3楼（绵阳火车站）",
                "avgPrice": "23",
                "avgScore": "3.7",
                "hasFoodSafeInfo": "TRUE",
                "latitude": "31.45354",
                "longitude": "104.720565",
                "name": "鲜芋仙（涪城万达店）",
                "openTime": "周一至周日 10:00-22:00",
                "phone": "0816-2886963",
                "poiId": "5208724"
            },
            {
                "Store_type": "9",
                "address": "涪城区花园路9号万达广场室内步行街三层",
                "avgPrice": "68",
                "avgScore": "3.6",
                "hasFoodSafeInfo": "TRUE",
                "latitude": "31.453474",
                "longitude": "104.72054",
                "name": "蜀江烤鱼（涪城万达店）",
                "openTime": "周一至周日 10:30-22:00",
                "phone": "0816-2377718",
                "poiId": "4964806"
            },
            {
                "Store_type": "3",
                "address": "涪城区跃进路时代天骄广场三号楼三楼二号（404医院对面时代天骄商业广场盘子女人旁）",
                "avgPrice": "58",
                "avgScore": "3.6",
                "hasFoodSafeInfo": "TRUE",
                "latitude": "31.47647",
                "longitude": "104.740917",
                "name": "三香悦精品川菜馆",
                "openTime": "周一至周日 09:00-21:00",
                "phone": "0816-6224592/18981182739",
                "poiId": "6078153"
            },
            {
                "Store_type": "9",
                "address": "江油市中雁路三合镇庄稼医院斜对面",
                "avgPrice": "28",
                "avgScore": "4.4",
                "hasFoodSafeInfo": "TRUE",
                "latitude": "31.79643",
                "longitude": "104.777044",
                "name": "幺妹肥肠",
                "openTime": "周一至周日 07:00-21:00",
                "phone": "15328201966",
                "poiId": "52724646"
            },
            {
                "Store_type": "9",
                "address": "涪城区荷花东街39号（桂园雅居8幢1楼）",
                "avgPrice": "63",
                "avgScore": "4.3",
                "hasFoodSafeInfo": "TRUE",
                "latitude": "31.450065",
                "longitude": "104.715861",
                "name": "鲜尚轩斑鱼庄（荷花东街店）",
                "openTime": "周一至周日 09:30-22:00  2020-01-25至2020-01-27 休息",
                "phone": "0816-2367836",
                "poiId": "2255628"
            },
            {
                "Store_type": "5",
                "address": "游仙区一环路东段208号芙蓉汉城二期广场旁29-8号（近芙蓉汉城广场）",
                "avgPrice": "54",
                "avgScore": "4.5",
                "hasFoodSafeInfo": "TRUE",
                "latitude": "31.476562",
                "longitude": "104.772256",
                "name": "羊加酱烤羊腿（芙蓉汉城总店）",
                "openTime": "周一至周日 10:00-22:00  2020-01-24 休息",
                "phone": "18881604123",
                "poiId": "41948593"
            },
            {
                "Store_type": "12",
                "address": "涪城区沿江东路6号负1号商铺",
                "avgPrice": "15",
                "avgScore": "3.7",
                "hasFoodSafeInfo": "TRUE",
                "latitude": "31.461378",
                "longitude": "104.739851",
                "name": "何妈冒菜（通安巷店）",
                "openTime": "周一至周日 09:00-24:00",
                "phone": "0816-2629220/18281917288",
                "poiId": "41430576"
            },
            {
                "Store_type": "14",
                "address": "江油市会昌路博文小区旁凯宴庄园（江油市会昌路博文小区旁凯宴庄园）",
                "avgPrice": "55",
                "avgScore": "3.9",
                "hasFoodSafeInfo": "TRUE",
                "latitude": "31.759111",
                "longitude": "104.729614",
                "name": "凯宴庄园",
                "openTime": "周一至周日 09:00-13:30 16:30-19:30",
                "phone": "0816-3360788",
                "poiId": "4822866"
            },
            {
                "Store_type": "3",
                "address": "涪城区长虹大道南段南山中学斜对面",
                "avgPrice": "44",
                "avgScore": "3.4",
                "hasFoodSafeInfo": "TRUE",
                "latitude": "31.443144",
                "longitude": "104.763536",
                "name": "南山锅锅肴土灶鸡",
                "openTime": "周一至周日 09:30-14:30 17:00-22:00",
                "phone": "0816-2336655",
                "poiId": "40245217"
            },
            {
                "Store_type": "16",
                "address": "涪城区火炬西街北段126号（铂金时代）",
                "avgPrice": "40",
                "avgScore": "4",
                "hasFoodSafeInfo": "TRUE",
                "latitude": "31.470744",
                "longitude": "104.677252",
                "name": "鸭天下（高新店）",
                "openTime": "周一至周日 09:00-14:00 17:00-21:00",
                "phone": "0816-2686333",
                "poiId": "51864844"
            },
            {
                "Store_type": "14",
                "address": "涪城区长虹大道中段45号4楼（近长虹大道）",
                "avgPrice": "59",
                "avgScore": "4.3",
                "hasFoodSafeInfo": "TRUE",
                "latitude": "31.475679",
                "longitude": "104.737839",
                "name": "盛宴大酒楼",
                "openTime": "周一至周日 11:00-21:00  2020-01-17至2020-02-29 休息",
                "phone": "0816-2323966",
                "poiId": "3276795"
            },
            {
                "Store_type": "2",
                "address": "安州区花荄镇文苑路东段52号",
                "avgPrice": "20",
                "avgScore": "4.4",
                "hasFoodSafeInfo": "TRUE",
                "latitude": "31.539191",
                "longitude": "104.560509",
                "name": "麦之都diy蛋糕房",
                "openTime": "周一至周日 08:00-22:00",
                "phone": "15281100865",
                "poiId": "52698182"
            },
            {
                "Store_type": "3",
                "address": "涪城区长虹大道南段56-5号（近协和医院饮马大厦流星花园）",
                "avgPrice": "43",
                "avgScore": "4.3",
                "hasFoodSafeInfo": "TRUE",
                "latitude": "31.45158",
                "longitude": "104.74313",
                "name": "豪吧特时尚餐厅（御营坝店）",
                "openTime": "周一至周日 09:00-14:00 17:00-21:00",
                "phone": "0816-2396288",
                "poiId": "2722841"
            },
            {
                "Store_type": "1",
                "address": "涪城区涪经开区南湖街133号",
                "avgPrice": "54",
                "avgScore": "4",
                "hasFoodSafeInfo": "TRUE",
                "latitude": "31.43008",
                "longitude": "104.777287",
                "name": "重庆红蜻蜓美蛙鱼头火锅（绵阳店）",
                "openTime": "周一至周日 09:30-13:30 16:30-22:00  2020-01-24至2020-01-28 休息",
                "phone": "0816-6395866",
                "poiId": "2255644"
            },
            {
                "Store_type": "2",
                "address": "涪城区花园路9号万达广场1楼",
                "avgPrice": "24",
                "avgScore": "3.8",
                "hasFoodSafeInfo": "TRUE",
                "latitude": "31.45367",
                "longitude": "104.71944",
                "name": "阿芒迪娜（万达店）",
                "openTime": "周一至周日 07:30-22:00",
                "phone": "0816-6333329",
                "poiId": "65831844"
            },
            {
                "Store_type": "1",
                "address": "江油市双江路江电老大门（14路车终点站）",
                "avgPrice": "31",
                "avgScore": "4.2",
                "hasFoodSafeInfo": "TRUE",
                "latitude": "31.795051",
                "longitude": "104.768486",
                "name": "馥园火锅",
                "openTime": "周一至周日 12:00-24:00",
                "phone": "15908244455",
                "poiId": "42426352"
            },
            {
                "Store_type": "16",
                "address": "江油市诗仙路中段文风街（李白纪念馆前）",
                "avgPrice": "50",
                "avgScore": "4",
                "hasFoodSafeInfo": "TRUE",
                "latitude": "31.777319",
                "longitude": "104.740497",
                "name": "芭夯兔（江油店）",
                "openTime": "周一至周日 10:00-22:00  2020-01-28至2020-02-01 休息",
                "phone": "0816-3268097",
                "poiId": "5299194"
            },
            {
                "Store_type": "7",
                "address": "涪城区临园路东段74号凯德广场05层07/08/09B号",
                "avgPrice": "60",
                "avgScore": "3.8",
                "hasFoodSafeInfo": "TRUE",
                "latitude": "31.464064",
                "longitude": "104.741263",
                "name": "良木缘咖啡西餐（凯德店）",
                "openTime": "周一至周日 10:00-23:30",
                "phone": "0816-2717122",
                "poiId": "6731736"
            },
            {
                "Store_type": "10",
                "address": "平武县飞龙路西段205号",
                "avgPrice": "10",
                "avgScore": "3.6",
                "hasFoodSafeInfo": "TRUE",
                "latitude": "32.406818",
                "longitude": "104.530136",
                "name": "鹰贵饼屋（总店）",
                "openTime": "周一至周日 09:00-17:00",
                "phone": "0816-8829386",
                "poiId": "5233195"
            },
            {
                "Store_type": "16",
                "address": "涪城区科大路150号（西科大新区小铁门外）",
                "avgPrice": "9",
                "avgScore": "3.9",
                "hasFoodSafeInfo": "TRUE",
                "latitude": "31.54009",
                "longitude": "104.69878",
                "name": "光头鸭脖（新区店）",
                "openTime": "周一至周日 09:00-23:00  2020-01-24至2020-01-30 休息",
                "phone": "15008180828",
                "poiId": "4818291"
            },
            {
                "Store_type": "1",
                "address": "涪城区元通路科创园区元通文化广场（温莎国际旁）",
                "avgPrice": "50",
                "avgScore": "3.8",
                "hasFoodSafeInfo": "FALSE",
                "latitude": "31.473133",
                "longitude": "104.705626",
                "name": "园中缘园林火锅",
                "openTime": "周一至周日 09:30-12:30 16:30-21:30",
                "phone": "0816-6202823",
                "poiId": "40412556"
            },
            {
                "Store_type": "2",
                "address": "安州区文胜路西段67号（银都宝座一期对面）",
                "avgPrice": "12",
                "avgScore": "4.1",
                "hasFoodSafeInfo": "TRUE",
                "latitude": "31.534166",
                "longitude": "104.561007",
                "name": "金色麦浪烘焙",
                "openTime": "周一至周日 07:00-22:00",
                "phone": "0816-4662126/15882860080",
                "poiId": "51983590"
            },
            {
                "Store_type": "6",
                "address": "涪城区上马西街",
                "avgPrice": "53",
                "avgScore": "4.4",
                "hasFoodSafeInfo": "FALSE",
                "latitude": "31.489649",
                "longitude": "104.700982",
                "name": "爱尚LaKaoLa烤肉",
                "openTime": "周一至周日 10:00-23:30  2020-02-16至2020-02-22 休息",
                "phone": "13778124873",
                "poiId": "195292616"
            },
            {
                "Store_type": "1",
                "address": "涪城区玉泉中路2号（喜来公社1栋7-8号）",
                "avgPrice": "55",
                "avgScore": "5",
                "hasFoodSafeInfo": "TRUE",
                "latitude": "31.489768",
                "longitude": "104.707465",
                "name": "喜来鼎香源火锅",
                "openTime": "周一至周日 10:00-22:00",
                "phone": "0816-6336866",
                "poiId": "185011399"
            },
            {
                "Store_type": "6",
                "address": "涪城区塘坊大道",
                "avgPrice": "45",
                "avgScore": "4.8",
                "hasFoodSafeInfo": "FALSE",
                "latitude": "31.400319",
                "longitude": "104.794834",
                "name": "百变疯味烤肉（金楠天街店）",
                "openTime": "周一至周日 17:00-23:00",
                "phone": "0816-2288765/13398355580",
                "poiId": "718724193"
            },
            {
                "Store_type": "1",
                "address": "涪城区玉泉南路奥林春天三期七幢一楼",
                "avgPrice": "82",
                "avgScore": "3.4",
                "hasFoodSafeInfo": "TRUE",
                "latitude": "31.48608",
                "longitude": "104.70627",
                "name": "蜀九香火锅（园艺山店）",
                "openTime": "周一至周日 09:30-23:30",
                "phone": "0816-6393699",
                "poiId": "158899855"
            },
            {
                "Store_type": "10",
                "address": "涪城区火炬西街与普明南路交汇处东方国际",
                "avgPrice": "43",
                "avgScore": "5",
                "hasFoodSafeInfo": "TRUE",
                "latitude": "31.470316",
                "longitude": "104.677288",
                "name": "蜀苑呱呱叫烧菜馆（高新店）",
                "openTime": "周一至周日 09:00-21:30",
                "phone": "0816-2203477",
                "poiId": "157230343"
            },
            {
                "Store_type": "2",
                "address": "涪城区剑南路西段跃进路4号",
                "avgPrice": "60",
                "avgScore": "4.5",
                "hasFoodSafeInfo": "TRUE",
                "latitude": "31.4682",
                "longitude": "104.742233",
                "name": "曼时光烘培（国际城店）",
                "openTime": "周一至周日 10:00-22:00",
                "phone": "18990194761",
                "poiId": "978709703"
            },
            {
                "Store_type": "1",
                "address": "涪城区园艺东街北段58号奥林春天二期10棟1层2号",
                "avgPrice": "50",
                "avgScore": "3",
                "hasFoodSafeInfo": "TRUE",
                "latitude": "31.48611",
                "longitude": "104.714814",
                "name": "大味美蛙鱼头火锅（园艺山店）",
                "openTime": "周一至周日 10:00-22:00  2020-01-23至2020-01-24 休息",
                "phone": "0816-2572762",
                "poiId": "1645729272"
            },
            {
                "Store_type": "9",
                "address": "涪城区跃进路50号（仙龙潭养身汤楼下）",
                "avgPrice": "55",
                "avgScore": "4.5",
                "hasFoodSafeInfo": "TRUE",
                "latitude": "31.476453",
                "longitude": "104.742183",
                "name": "关鱼把把烧（1958店）",
                "openTime": "周一至周日 17:00-02:00  2020-01-24至2020-01-26 休息",
                "phone": "0816-2397997/13980145454",
                "poiId": "177601402"
            },
            {
                "Store_type": "9",
                "address": "梓潼县紫阳路兴发广场3楼",
                "avgPrice": "23",
                "avgScore": "3.5",
                "hasFoodSafeInfo": "FALSE",
                "latitude": "31.6303",
                "longitude": "105.16594",
                "name": "鲜火肴瓦罐酱焖小海鲜",
                "openTime": "周一至周日 10:00-22:00",
                "phone": "13778033626",
                "poiId": "1409876198"
            },
            {
                "Store_type": "12",
                "address": "涪城区园艺街长兴星城5-1-7（春舍宜宾烧烤旁）",
                "avgPrice": "57",
                "avgScore": "3.4",
                "hasFoodSafeInfo": "FALSE",
                "latitude": "31.488791",
                "longitude": "104.704761",
                "name": "马路边边麻辣烫（园艺山店）",
                "openTime": "周一至周日 11:00-23:00  2020-01-24至2020-01-27 休息",
                "phone": "0816-2177198/15508065111",
                "poiId": "182455125"
            },
            {
                "Store_type": "9",
                "address": "涪城区跃进路1958商业街太平洋影城斜对面",
                "avgPrice": "62",
                "avgScore": "4.1",
                "hasFoodSafeInfo": "TRUE",
                "latitude": "31.476583",
                "longitude": "104.744846",
                "name": "三国鱼摆摆（1958店）",
                "openTime": "周一至周日 10:30-14:00 16:30-21:30  2020-01-24至2020-01-26 休息",
                "phone": "13778122208",
                "poiId": "164147461"
            },
            {
                "Store_type": "3",
                "address": "涪城区园艺东街园艺山奥林三期",
                "avgPrice": "36",
                "avgScore": "4",
                "hasFoodSafeInfo": "FALSE",
                "latitude": "31.486891",
                "longitude": "104.706867",
                "name": "地头鲜（园艺山店）",
                "openTime": "周一至周日 09:00-21:00  2020-01-24至2020-01-27 休息",
                "phone": "18780369328",
                "poiId": "87635003"
            },
            {
                "Store_type": "3",
                "address": "涪城区火炬西街北段93号丽府e家商务酒店内",
                "avgPrice": "42",
                "avgScore": "3",
                "hasFoodSafeInfo": "FALSE",
                "latitude": "31.469589",
                "longitude": "104.676142",
                "name": "丽府e家中餐厅",
                "openTime": "周一至周日 09:00-20:30",
                "phone": "0816-2574403",
                "poiId": "165841362"
            },
            {
                "Store_type": "5",
                "address": "游仙区四川省绵阳市游仙区沈家坝北街1号1幢1-1-2-3",
                "avgPrice": "30",
                "avgScore": "4.5",
                "hasFoodSafeInfo": "TRUE",
                "latitude": "31.466191",
                "longitude": "104.77442",
                "name": "彝味印象火盆烧烤（沈家坝店）",
                "openTime": "周一至周日 16:00-24:00",
                "phone": "15882788654",
                "poiId": "933480632"
            },
            {
                "Store_type": "1",
                "address": "游仙区小枧沟镇惠民街107号",
                "avgPrice": "50",
                "avgScore": "5",
                "hasFoodSafeInfo": "TRUE",
                "latitude": "31.424923",
                "longitude": "104.815113",
                "name": "鲜莽子火锅",
                "openTime": "周一至周日 11:30-23:00",
                "phone": "13980125256",
                "poiId": "169985357"
            },
            {
                "Store_type": "5",
                "address": "涪城区火炬西街北段58-9号",
                "avgPrice": "41",
                "avgScore": "5",
                "hasFoodSafeInfo": "FALSE",
                "latitude": "31.46388",
                "longitude": "104.67525",
                "name": "蜀味火焱山火盆烧烤（高新区店）",
                "openTime": "周一至周日 16:00-23:30",
                "phone": "15801739358",
                "poiId": "193215048"
            },
            {
                "Store_type": "1",
                "address": "游仙区五里堆路一环路东段165号",
                "avgPrice": "31",
                "avgScore": "4.4",
                "hasFoodSafeInfo": "FALSE",
                "latitude": "31.47825",
                "longitude": "104.767215",
                "name": "溢品香鱼火锅（五里堆店）",
                "openTime": "周一至周日 10:00-13:00 16:30-22:00",
                "phone": "0816-2717998/13408101480",
                "poiId": "597099460"
            },
            {
                "Store_type": "3",
                "address": "涪城区高新区绵兴东路96号25-30、107门面",
                "avgPrice": "38",
                "avgScore": "5",
                "hasFoodSafeInfo": "TRUE",
                "latitude": "31.467316",
                "longitude": "104.680483",
                "name": "隆味客餐饮",
                "openTime": "周一至周日 10:00-23:00",
                "phone": "18683664287",
                "poiId": "194413990"
            },
            {
                "Store_type": "15",
                "address": "涪城区孙家巷2号",
                "avgPrice": "10",
                "avgScore": "5",
                "hasFoodSafeInfo": "TRUE",
                "latitude": "31.45618",
                "longitude": "104.75532",
                "name": "余记萝卜干（马家巷店）",
                "openTime": "周一至周日 11:30-16:00 17:30-21:00",
                "phone": "15881609196/18190660125",
                "poiId": "164744915"
            },
            {
                "Store_type": "4",
                "address": "涪城区涪城区会仙路11-6号",
                "avgPrice": "20",
                "avgScore": "3.5",
                "hasFoodSafeInfo": "TRUE",
                "latitude": "31.464985",
                "longitude": "104.741682",
                "name": "吉鼓咖啡（会仙店）",
                "openTime": "周一至周日 12:30-22:00",
                "phone": "15884607595",
                "poiId": "95143439"
            },
            {
                "Store_type": "1",
                "address": "涪城区金菊街31号1栋1-2层3号、4号",
                "avgPrice": "58",
                "avgScore": "4.7",
                "hasFoodSafeInfo": "TRUE",
                "latitude": "31.455594",
                "longitude": "104.722186",
                "name": "红社老味火锅（万达总店）",
                "openTime": "周一至周日 11:00-24:00  2020-03-03至2020-03-31 11:30-22:00",
                "phone": "0816-2626138",
                "poiId": "187197359"
            },
            {
                "Store_type": "1",
                "address": "北川羌族自治县105省道西50米",
                "avgPrice": "35",
                "avgScore": "0",
                "hasFoodSafeInfo": "FALSE",
                "latitude": "31.923067",
                "longitude": "104.587015",
                "name": "清娃子火锅",
                "openTime": "",
                "phone": "15369854236",
                "poiId": "84137925"
            },
            {
                "Store_type": "3",
                "address": "涪城区高新区双碑中街46号C、D幢1、2层商铺",
                "avgPrice": "66",
                "avgScore": "4.3",
                "hasFoodSafeInfo": "TRUE",
                "latitude": "31.466325",
                "longitude": "104.688537",
                "name": "明厨先生中餐厅",
                "openTime": "周一至周日 11:00-14:00 17:00-20:30",
                "phone": "15983687890",
                "poiId": "179356757"
            },
            {
                "Store_type": "1",
                "address": "涪城区兴达街梅西百货",
                "avgPrice": "54",
                "avgScore": "4.3",
                "hasFoodSafeInfo": "TRUE",
                "latitude": "31.461083",
                "longitude": "104.753458",
                "name": "小别蜀火锅集市（梅西百货店）",
                "openTime": "周一至周日 10:00-23:00  2020-02-18至2020-02-29 休息",
                "phone": "0816-2129666",
                "poiId": "1452505114"
            },
            {
                "Store_type": "15",
                "address": "涪城区涪红星街绵州大剧院1楼7号（绵州大剧院背后）",
                "avgPrice": "16",
                "avgScore": "3.5",
                "hasFoodSafeInfo": "TRUE",
                "latitude": "31.45618",
                "longitude": "104.7547",
                "name": "冷沾沾（剧院店）",
                "openTime": "周一至周日 11:00-21:00  2020-01-24至2020-01-30 休息",
                "phone": "13890141414/18181766758",
                "poiId": "165941952"
            },
            {
                "Store_type": "6",
                "address": "涪城区涪城金街花园路9号",
                "avgPrice": "47",
                "avgScore": "4.1",
                "hasFoodSafeInfo": "TRUE",
                "latitude": "31.454513",
                "longitude": "104.720192",
                "name": "驰走三味·烤肉集合（万达店）",
                "openTime": "周一至周日 10:00-22:00",
                "phone": "0816-6916166",
                "poiId": "1614881218"
            },
            {
                "Store_type": "16",
                "address": "涪城区石塘路14号流星花园",
                "avgPrice": "30",
                "avgScore": "4.9",
                "hasFoodSafeInfo": "TRUE",
                "latitude": "31.44999",
                "longitude": "104.743364",
                "name": "妖妖兔",
                "openTime": "周一至周日 10:00-14:00 17:00-22:00",
                "phone": "15882818923",
                "poiId": "188063916"
            },
            {
                "Store_type": "1",
                "address": "涪城区滨河北路中段丽景花城4号门",
                "avgPrice": "50",
                "avgScore": "3.5",
                "hasFoodSafeInfo": "TRUE",
                "latitude": "31.45129",
                "longitude": "104.71306",
                "name": "川巴龍鲜火锅",
                "openTime": "周一至周日 09:30-22:30",
                "phone": "15984414237",
                "poiId": "195907555"
            },
            {
                "Store_type": "9",
                "address": "涪城区御营坝阳光曼哈顿二期（河堤边二楼）",
                "avgPrice": "112",
                "avgScore": "5",
                "hasFoodSafeInfo": "TRUE",
                "latitude": "31.45609",
                "longitude": "104.745969",
                "name": "虾佬圣汤（曼哈顿旗舰店）",
                "openTime": "周一至周日 10:00-22:00",
                "phone": "0816-2399122/2397488",
                "poiId": "2628724"
            },
            {
                "Store_type": "17",
                "address": "涪城区御旗路24号",
                "avgPrice": "60",
                "avgScore": "3.6",
                "hasFoodSafeInfo": "FALSE",
                "latitude": "31.456183",
                "longitude": "104.735947",
                "name": "地古牛养生汤锅（御营坝店）",
                "openTime": "周一至周日 10:00-14:00 16:00-23:00",
                "phone": "0816-2290888",
                "poiId": "160166698"
            },
            {
                "Store_type": "6",
                "address": "涪城区涪城区花园南街66号教体局旁",
                "avgPrice": "78",
                "avgScore": "4",
                "hasFoodSafeInfo": "TRUE",
                "latitude": "31.45545",
                "longitude": "104.722961",
                "name": "美善韩式炭火烤肉烤串（万达店）",
                "openTime": "周一至周日 11:00-23:30",
                "phone": "15723043222",
                "poiId": "177947698"
            },
            {
                "Store_type": "9",
                "address": "盐亭县云溪上街121、123、125号（南井湾）",
                "avgPrice": "29",
                "avgScore": "4.9",
                "hasFoodSafeInfo": "TRUE",
                "latitude": "31.221784",
                "longitude": "105.389352",
                "name": "红蜻蜓美蛙鱼头（盐亭店）",
                "openTime": "周一至周日 09:00-23:00  2020-01-24 休息",
                "phone": "0816-7686006",
                "poiId": "163339041"
            },
            {
                "Store_type": "15",
                "address": "涪城区会仙路4-10号",
                "avgPrice": "16",
                "avgScore": "4.3",
                "hasFoodSafeInfo": "TRUE",
                "latitude": "31.464769",
                "longitude": "104.739031",
                "name": "甜心•闲生手工传统冰粉（凯德直营店）",
                "openTime": "春季、夏季 周一至周日 11:30-20:00  秋季、冬季 周一至周日 08:30-20:30",
                "phone": "18081840821",
                "poiId": "1620121633"
            },
            {
                "Store_type": "9",
                "address": "江油市大鹏路西段（宝龙广场三楼）",
                "avgPrice": "46",
                "avgScore": "4.3",
                "hasFoodSafeInfo": "TRUE",
                "latitude": "31.749024",
                "longitude": "104.719004",
                "name": "虾吃虾涮（宝龙广场店）",
                "openTime": "周一至周日 10:00-22:00  2020-01-24 休息",
                "phone": "13795952190/0816-3323389",
                "poiId": "194822767"
            },
            {
                "Store_type": "7",
                "address": "涪城区城郊乡白土村（融创九阙府生活体验馆旁）",
                "avgPrice": "82",
                "avgScore": "3.5",
                "hasFoodSafeInfo": "FALSE",
                "latitude": "31.504085",
                "longitude": "104.700087",
                "name": "幸会山居西餐",
                "openTime": "周一至周日 11:00-21:00",
                "phone": "15681190900",
                "poiId": "1757438352"
            },
            {
                "Store_type": "8",
                "address": "涪城区丰谷甘露小学经贸街南",
                "avgPrice": "50",
                "avgScore": "3.5",
                "hasFoodSafeInfo": "TRUE",
                "latitude": "31.349439",
                "longitude": "104.82938",
                "name": "双鑫酒家",
                "openTime": "周一至周日 10:00-22:00",
                "phone": "15228418151",
                "poiId": "180043885"
            },
            {
                "Store_type": "4",
                "address": "涪城区长虹国际城二期29栋3楼41号（光大证券旁）",
                "avgPrice": "38",
                "avgScore": "5",
                "hasFoodSafeInfo": "TRUE",
                "latitude": "31.468453",
                "longitude": "104.744223",
                "name": "NaNa·Food娜娜福热狗和咖啡（长虹国际城店）",
                "openTime": "周一至周日 10:30-21:30",
                "phone": "13547135220",
                "poiId": "157255135"
            },
            {
                "Store_type": "1",
                "address": "涪城区青义北街青羊公寓17号楼一楼门面（蜀香园斜对面）",
                "avgPrice": "38",
                "avgScore": "4.2",
                "hasFoodSafeInfo": "FALSE",
                "latitude": "31.542197",
                "longitude": "104.70355",
                "name": "西蜀大宅门火锅（西科大新区店）",
                "openTime": "周一至周日 10:30-14:00 17:00-23:00",
                "phone": "18084889897",
                "poiId": "165060386"
            },
            {
                "Store_type": "4",
                "address": "涪城区四川省绵阳市涪城区青年路11号",
                "avgPrice": "36",
                "avgScore": "4.6",
                "hasFoodSafeInfo": "TRUE",
                "latitude": "31.455339",
                "longitude": "104.765229",
                "name": "SOKESI米亚果子PET猫咖啡馆",
                "openTime": "周一至周日 12:00-20:00",
                "phone": "13158888660",
                "poiId": "1044131425"
            },
            {
                "Store_type": "9",
                "address": "涪城区经开区绵州大道经开万达广场室内三楼3051号",
                "avgPrice": "46",
                "avgScore": "3.9",
                "hasFoodSafeInfo": "TRUE",
                "latitude": "31.411552",
                "longitude": "104.785017",
                "name": "馋火炉鱼（CBD万达店）",
                "openTime": "周一至周日 10:30-21:30",
                "phone": "0816-2197099",
                "poiId": "186382749"
            },
            {
                "Store_type": "13",
                "address": "涪城区花园路9号万达广场6栋1-2层6-1-43号",
                "avgPrice": "60",
                "avgScore": "3.7",
                "hasFoodSafeInfo": "TRUE",
                "latitude": "31.45392",
                "longitude": "104.720778",
                "name": "驰走三味（万达店）",
                "openTime": "周一至周日 11:00-23:00",
                "phone": "0816-6336535",
                "poiId": "96829677"
            },
            {
                "Store_type": "2",
                "address": "涪城区长虹国际城33栋一层1-8号门店",
                "avgPrice": "58",
                "avgScore": "5",
                "hasFoodSafeInfo": "TRUE",
                "latitude": "31.469105",
                "longitude": "104.745731",
                "name": "胜先生的烘焙店（长虹国际城店）",
                "openTime": "周一至周日 全天",
                "phone": "18781116632/18281599228",
                "poiId": "192516485"
            },
            {
                "Store_type": "6",
                "address": "涪城区石桌子街",
                "avgPrice": "58",
                "avgScore": "0",
                "hasFoodSafeInfo": "FALSE",
                "latitude": "31.410976",
                "longitude": "104.785231",
                "name": "景福宫韩式烤肉",
                "openTime": "周一至周日 10:00-22:00",
                "phone": "15082152141",
                "poiId": "888035758"
            },
            {
                "Store_type": "3",
                "address": "涪城区科创区上马西街上马望蜀苑7-1号",
                "avgPrice": "59",
                "avgScore": "3.5",
                "hasFoodSafeInfo": "TRUE",
                "latitude": "31.489919",
                "longitude": "104.697926",
                "name": "森米Club休闲餐吧（上马西街店）",
                "openTime": "周一至周日 10:00-23:30",
                "phone": "0816-2320778",
                "poiId": "193699224"
            },
            {
                "Store_type": "14",
                "address": "涪城区莲花寺路与园艺街交叉口",
                "avgPrice": "51",
                "avgScore": "3.8",
                "hasFoodSafeInfo": "TRUE",
                "latitude": "31.474331",
                "longitude": "104.690559",
                "name": "品阁山庄",
                "openTime": "周一至周日 08:00-22:00  2020-01-24至2020-01-30 休息",
                "phone": "0816-2551999",
                "poiId": "4581057"
            },
            {
                "Store_type": "6",
                "address": "游仙区东津路海悦银河城 B馆4楼",
                "avgPrice": "60",
                "avgScore": "5",
                "hasFoodSafeInfo": "TRUE",
                "latitude": "31.466356",
                "longitude": "104.770723",
                "name": "小酌轩烤肉店（海悦银河城店）",
                "openTime": "周一至周日 10:00-14:30 16:30-21:00  2020-01-23至2020-01-29 休息",
                "phone": "0816-2218678/15202685105",
                "poiId": "188015071"
            },
            {
                "Store_type": "5",
                "address": "涪城区虹苑路D-25号",
                "avgPrice": "48",
                "avgScore": "4.1",
                "hasFoodSafeInfo": "FALSE",
                "latitude": "31.461259",
                "longitude": "104.683616",
                "name": "锦州特色烧烤（西雅图店）",
                "openTime": "周一至周日 16:30-02:00  2020-01-18至2020-02-01 休息",
                "phone": "15351245123",
                "poiId": "195247173"
            },
            {
                "Store_type": "1",
                "address": "涪城区板桥街",
                "avgPrice": "53",
                "avgScore": "3.9",
                "hasFoodSafeInfo": "FALSE",
                "latitude": "31.427838",
                "longitude": "104.779549",
                "name": "正九宫火锅馆",
                "openTime": "周一至周日 12:00-23:00  2020-01-23至2020-01-28 12:00-14:00 16:00-23:00",
                "phone": "0816-8733878",
                "poiId": "190650730"
            },
            {
                "Store_type": "1",
                "address": "涪城区南河路163号（南河体育馆后大门）",
                "avgPrice": "56",
                "avgScore": "4",
                "hasFoodSafeInfo": "TRUE",
                "latitude": "31.450057",
                "longitude": "104.754975",
                "name": "邓氏火锅城",
                "openTime": "周一至周日 11:00-23:30",
                "phone": "0816-2210588",
                "poiId": "2255364"
            },
            {
                "Store_type": "9",
                "address": "游仙区沉抗镇仙海风景区南沉抗公交站旁",
                "avgPrice": "35",
                "avgScore": "3.5",
                "hasFoodSafeInfo": "TRUE",
                "latitude": "31.533296",
                "longitude": "104.853661",
                "name": "仙海麻麻鱼府",
                "openTime": "周一至周日 08:30-00:00",
                "phone": "13990190501",
                "poiId": "117575318"
            },
            {
                "Store_type": "12",
                "address": "游仙区东津路69号景福花园10号",
                "avgPrice": "35",
                "avgScore": "3.8",
                "hasFoodSafeInfo": "TRUE",
                "latitude": "31.459981",
                "longitude": "104.782769",
                "name": "三顾冒菜（沈家坝店）",
                "openTime": "周一至周日 11:00-23:00",
                "phone": "18181754171",
                "poiId": "106105051"
            },
            {
                "Store_type": "3",
                "address": "涪城区滨河北路中段桂园雅居河堤边（原玺鼎板栗鸡总店）",
                "avgPrice": "59",
                "avgScore": "4",
                "hasFoodSafeInfo": "FALSE",
                "latitude": "31.449919",
                "longitude": "104.716394",
                "name": "六和源秘制板栗养身鸡hot烤吧",
                "openTime": "周一至周日 10:00-14:00 16:30-21:30  2020-01-26 10:00-11:00",
                "phone": "0816-2367699",
                "poiId": "169443771"
            },
            {
                "Store_type": "3",
                "address": "涪城区园艺街20号",
                "avgPrice": "45",
                "avgScore": "3.8",
                "hasFoodSafeInfo": "FALSE",
                "latitude": "31.4827",
                "longitude": "104.69932",
                "name": "巧手厨房",
                "openTime": "周一至周日 09:00-21:00  2020-01-23至2020-01-26 休息",
                "phone": "0816-6356688",
                "poiId": "40657546"
            },
            {
                "Store_type": "3",
                "address": "涪城区涪绵兴西路52-6号",
                "avgPrice": "30",
                "avgScore": "4.1",
                "hasFoodSafeInfo": "TRUE",
                "latitude": "31.458064",
                "longitude": "104.629363",
                "name": "美林餐厅（永兴店）",
                "openTime": "周一至周日 09:00-21:00  2020-01-23至2020-01-29 休息",
                "phone": "0816-2765006",
                "poiId": "62563163"
            },
            {
                "Store_type": "11",
                "address": "涪城区长虹大道北段50号A栋27号",
                "avgPrice": "16",
                "avgScore": "0",
                "hasFoodSafeInfo": "TRUE",
                "latitude": "31.487236",
                "longitude": "104.740574",
                "name": "麦掌门汉堡（世纪城店）",
                "openTime": "周一至周日 10:00-22:00",
                "phone": "15309013182",
                "poiId": "1770741566"
            },
            {
                "Store_type": "8",
                "address": "涪城区跃进路50号1958商业街12栋3号仙龙潭楼下",
                "avgPrice": "86",
                "avgScore": "3.5",
                "hasFoodSafeInfo": "TRUE",
                "latitude": "31.476459",
                "longitude": "104.742204",
                "name": "初原炙烧炭火烧肉居酒屋",
                "openTime": "周一至周日 11:00-23:30  2020-01-24 休息",
                "phone": "0816-2267166",
                "poiId": "163450353"
            },
            {
                "Store_type": "3",
                "address": "涪城区花园路9号6-20号",
                "avgPrice": "25",
                "avgScore": "4",
                "hasFoodSafeInfo": "TRUE",
                "latitude": "31.45365",
                "longitude": "104.72086",
                "name": "余肥肠（万达店）",
                "openTime": "周一至周日 09:00-21:00",
                "phone": "13558990577",
                "poiId": "162840549"
            },
            {
                "Store_type": "2",
                "address": "涪城区花园路9号绵阳涪城万达广场5栋1-2层20号（万达广场3号门斜对面）",
                "avgPrice": "42",
                "avgScore": "4.3",
                "hasFoodSafeInfo": "TRUE",
                "latitude": "31.45335",
                "longitude": "104.72137",
                "name": "绘话意境甜品（万达店）",
                "openTime": "春季、冬季 周五至周日 09:00-23:00  周一至周四 09:00-22:30",
                "phone": "0816-2812588",
                "poiId": "159727696"
            },
            {
                "Store_type": "13",
                "address": "涪城区绵阳科创区剑南路西段323号乐荟城1-1-115号",
                "avgPrice": "63",
                "avgScore": "4.9",
                "hasFoodSafeInfo": "TRUE",
                "latitude": "31.484278",
                "longitude": "104.706174",
                "name": "上善本味（乐荟城店）",
                "openTime": "周一至周日 11:00-14:30 16:30-21:00  2020-01-21至2020-02-03 休息",
                "phone": "0816-2195126",
                "poiId": "157175647"
            },
            {
                "Store_type": "18",
                "address": "安州区文苑路东段（玖玖烧烤旁）",
                "avgPrice": "30",
                "avgScore": "3",
                "hasFoodSafeInfo": "FALSE",
                "latitude": "31.539538",
                "longitude": "104.562959",
                "name": "火塘烤盘菌汤",
                "openTime": "周一至周日 10:30-22:00",
                "phone": "0816-4335169/13108158655",
                "poiId": "42168890"
            },
            {
                "Store_type": "1",
                "address": "涪城区涪绵州大道中段229号金楠天街2层",
                "avgPrice": "56",
                "avgScore": "4",
                "hasFoodSafeInfo": "TRUE",
                "latitude": "31.40037",
                "longitude": "104.79379",
                "name": "杨肥肠YOHOCO小火锅",
                "openTime": "周一至周日 全天",
                "phone": "0816-6393999",
                "poiId": "108676335"
            },
            {
                "Store_type": "1",
                "address": "涪城区临园路西段20号",
                "avgPrice": "60",
                "avgScore": "3",
                "hasFoodSafeInfo": "FALSE",
                "latitude": "31.459395",
                "longitude": "104.723548",
                "name": "那些年老火锅",
                "openTime": "周一至周日 10:00-22:00",
                "phone": "0816-2685321",
                "poiId": "1890432981"
            },
            {
                "Store_type": "1",
                "address": "涪城区园兴东街创新中心二期1号楼负1楼",
                "avgPrice": "60",
                "avgScore": "5",
                "hasFoodSafeInfo": "FALSE",
                "latitude": "31.492031",
                "longitude": "104.697237",
                "name": "禧乐厨房主题森林火锅",
                "openTime": "周一至周日 17:30-21:30",
                "phone": "0816-2309333",
                "poiId": "179543696"
            },
            {
                "Store_type": "1",
                "address": "涪城区玉泉北路",
                "avgPrice": "50",
                "avgScore": "4.3",
                "hasFoodSafeInfo": "FALSE",
                "latitude": "31.484485",
                "longitude": "104.715783",
                "name": "板眼川A市井火锅",
                "openTime": "周一至周日 10:00-22:00",
                "phone": "0816-2271355",
                "poiId": "732130347"
            },
            {
                "Store_type": "1",
                "address": "涪城区六一堂路612-2号",
                "avgPrice": "45",
                "avgScore": "4.1",
                "hasFoodSafeInfo": "TRUE",
                "latitude": "31.424058",
                "longitude": "104.765887",
                "name": "犟牛遇匠牛火锅",
                "openTime": "周一至周日 10:00-22:00",
                "phone": "18981189820",
                "poiId": "188590036"
            },
            {
                "Store_type": "2",
                "address": "游仙区五里堆路10-10号",
                "avgPrice": "100",
                "avgScore": "0",
                "hasFoodSafeInfo": "TRUE",
                "latitude": "31.480157",
                "longitude": "104.765195",
                "name": "迷你mini蛋糕",
                "openTime": "周一至周日 10:00-20:30",
                "phone": "17378699848",
                "poiId": "195843254"
            },
            {
                "Store_type": "2",
                "address": "涪城区城南街5号",
                "avgPrice": "20",
                "avgScore": "0",
                "hasFoodSafeInfo": "TRUE",
                "latitude": "31.439202",
                "longitude": "104.775855",
                "name": "L+私人定制烘培",
                "openTime": "周一至周日 10:00-18:00",
                "phone": "18681380230",
                "poiId": "194724911"
            },
            {
                "Store_type": "3",
                "address": "涪城区花园路9号万达广场3楼(近绵阳火车站)",
                "avgPrice": "50",
                "avgScore": "4.7",
                "hasFoodSafeInfo": "TRUE",
                "latitude": "31.454388",
                "longitude": "104.71912",
                "name": "六月雪滋味干锅（万达广场店）",
                "openTime": "周一至周日 10:00-22:00  2020-01-24 休息",
                "phone": "0816-2355766",
                "poiId": "3255021"
            },
            {
                "Store_type": "5",
                "address": "涪城区六一堂路川音后街祥兴小吃旁",
                "avgPrice": "30",
                "avgScore": "3.5",
                "hasFoodSafeInfo": "TRUE",
                "latitude": "31.421065",
                "longitude": "104.764967",
                "name": "二娃烧烤",
                "openTime": "周一至周日 15:00-24:00",
                "phone": "15181630587",
                "poiId": "168502763"
            },
            {
                "Store_type": "1",
                "address": "涪城区飞云大道东段",
                "avgPrice": "50",
                "avgScore": "3.8",
                "hasFoodSafeInfo": "FALSE",
                "latitude": "31.452414",
                "longitude": "104.702906",
                "name": "班委会老火锅（石桥铺店）",
                "openTime": "周一至周日 10:00-23:30",
                "phone": "0816-8722872",
                "poiId": "194430359"
            },
            {
                "Store_type": "4",
                "address": "涪城区临园路东段74号凯德广场负一楼",
                "avgPrice": "13",
                "avgScore": "4.7",
                "hasFoodSafeInfo": "TRUE",
                "latitude": "31.463906",
                "longitude": "104.741203",
                "name": "甘蔗林",
                "openTime": "周一至周日 10:00-22:00",
                "phone": "0816-2860118",
                "poiId": "194003265"
            },
            {
                "Store_type": "1",
                "address": "涪城区双碑中街54号",
                "avgPrice": "36",
                "avgScore": "4.5",
                "hasFoodSafeInfo": "FALSE",
                "latitude": "31.46757",
                "longitude": "104.689433",
                "name": "重庆劲道鲜菜老火锅",
                "openTime": "周一至周日 11:00-22:00",
                "phone": "15281168680",
                "poiId": "177739461"
            },
            {
                "Store_type": "15",
                "address": "涪城区富乐路7-9号",
                "avgPrice": "12",
                "avgScore": "4.1",
                "hasFoodSafeInfo": "TRUE",
                "latitude": "31.465058",
                "longitude": "104.743505",
                "name": "圈粉传统手作冰粉",
                "openTime": "周一至周日 11:00-22:30",
                "phone": "13194881819",
                "poiId": "193275220"
            },
            {
                "Store_type": "1",
                "address": "涪城区飞云大道东段18号",
                "avgPrice": "47",
                "avgScore": "4.2",
                "hasFoodSafeInfo": "FALSE",
                "latitude": "31.45145",
                "longitude": "104.69917",
                "name": "满江红火锅【石桥铺店】",
                "openTime": "周一至周日 10:00-24:00  2020-01-23至2020-01-25 休息",
                "phone": "0816-2200705",
                "poiId": "157793914"
            },
            {
                "Store_type": "3",
                "address": "涪城区青义镇兴龙村社区二社育才街25号",
                "avgPrice": "15",
                "avgScore": "0",
                "hasFoodSafeInfo": "TRUE",
                "latitude": "31.53688",
                "longitude": "104.685369",
                "name": "房大厨黄焖鸡",
                "openTime": "周一至周日 10:00-21:00",
                "phone": "17309039312/18030983027",
                "poiId": "162129666"
            },
            {
                "Store_type": "1",
                "address": "涪城区涪科创园上马西街65号",
                "avgPrice": "42",
                "avgScore": "3",
                "hasFoodSafeInfo": "FALSE",
                "latitude": "31.489039",
                "longitude": "104.699099",
                "name": "重庆小板凳火锅",
                "openTime": "周一至周日 10:00-22:00  2020-01-23至2020-01-26 休息",
                "phone": "0816-2918198",
                "poiId": "162179473"
            },
            {
                "Store_type": "17",
                "address": "涪城区南河坝解放街38号（绵州大剧院对面，公安局斜对面）",
                "avgPrice": "46",
                "avgScore": "4.3",
                "hasFoodSafeInfo": "TRUE",
                "latitude": "31.455445",
                "longitude": "104.756613",
                "name": "青菜园子养生汤锅（解放街店）",
                "openTime": "周一至周日 10:00-22:00",
                "phone": "0816-2296969",
                "poiId": "184183204"
            },
            {
                "Store_type": "8",
                "address": "涪城区体运村路",
                "avgPrice": "45",
                "avgScore": "3.5",
                "hasFoodSafeInfo": "TRUE",
                "latitude": "31.450021",
                "longitude": "104.752641",
                "name": "得一精酿啤酒坊",
                "openTime": "周一至周日 09:00-02:00",
                "phone": "0816-2110300",
                "poiId": "162763609"
            },
            {
                "Store_type": "1",
                "address": "游仙区游仙路175号",
                "avgPrice": "45",
                "avgScore": "5",
                "hasFoodSafeInfo": "TRUE",
                "latitude": "31.503286",
                "longitude": "104.774322",
                "name": "锤大爷美蛙鱼火锅",
                "openTime": "周一至周日 10:00-22:00",
                "phone": "0816-2340456",
                "poiId": "1714330803"
            },
            {
                "Store_type": "10",
                "address": "涪城区绵州大道中段CBD万达广场3楼",
                "avgPrice": "15",
                "avgScore": "4",
                "hasFoodSafeInfo": "TRUE",
                "latitude": "31.412404",
                "longitude": "104.78514",
                "name": "新加坡妈妈烤包",
                "openTime": "周一至周日 10:00-21:30",
                "phone": "0816-2535007",
                "poiId": "187223889"
            },
            {
                "Store_type": "4",
                "address": "涪城区涪城区九洲·又一城",
                "avgPrice": "45",
                "avgScore": "3.5",
                "hasFoodSafeInfo": "TRUE",
                "latitude": "31.462676",
                "longitude": "104.68534",
                "name": "闲茶",
                "openTime": "周一至周日 09:00-22:00",
                "phone": "15308113836",
                "poiId": "1624589374"
            },
            {
                "Store_type": "1",
                "address": "游仙区三星路",
                "avgPrice": "35",
                "avgScore": "4.8",
                "hasFoodSafeInfo": "FALSE",
                "latitude": "31.42718",
                "longitude": "104.801671",
                "name": "鸡鱼良缘火锅",
                "openTime": "周一至周日 10:00-22:00  2020-01-24至2020-01-30 休息",
                "phone": "18030943476",
                "poiId": "1404607694"
            },
            {
                "Store_type": "16",
                "address": "涪城区孙家巷",
                "avgPrice": "17",
                "avgScore": "5",
                "hasFoodSafeInfo": "TRUE",
                "latitude": "31.45627",
                "longitude": "104.75516",
                "name": "曹氏一绝（孙家巷）",
                "openTime": "周一至周日 10:00-22:00  2020-01-22至2020-01-31 休息",
                "phone": "17313647807",
                "poiId": "157748289"
            },
            {
                "Store_type": "1",
                "address": "涪城区跃进路北段恒星商苑113号（华联超市旁）",
                "avgPrice": "50",
                "avgScore": "4.3",
                "hasFoodSafeInfo": "FALSE",
                "latitude": "31.50196",
                "longitude": "104.73558",
                "name": "吴记·牛大王秘制清汤鲜黄牛肉",
                "openTime": "周一至周日 全天",
                "phone": "0816-2685118",
                "poiId": "99090985"
            },
            {
                "Store_type": "3",
                "address": "安州区滨江西路北段2号一期c2栋107-126号",
                "avgPrice": "33",
                "avgScore": "0",
                "hasFoodSafeInfo": "TRUE",
                "latitude": "31.539858",
                "longitude": "104.569631",
                "name": "自贡2019爆炒",
                "openTime": "周一至周日 17:00-01:00",
                "phone": "0816-4661699",
                "poiId": "1070840392"
            },
            {
                "Store_type": "1",
                "address": "涪城区飞云中街",
                "avgPrice": "68",
                "avgScore": "4.1",
                "hasFoodSafeInfo": "TRUE",
                "latitude": "31.450025",
                "longitude": "104.699331",
                "name": "港火火锅研究所",
                "openTime": "周一至周日 10:00-01:00  2020-01-23至2020-01-25 休息",
                "phone": "0816-2387870",
                "poiId": "881405377"
            },
            {
                "Store_type": "5",
                "address": "涪城区科大路酥香门第拔丝蛋糕门口",
                "avgPrice": "0",
                "avgScore": "0",
                "hasFoodSafeInfo": "FALSE",
                "latitude": "31.540124",
                "longitude": "104.701252",
                "name": "恢记老长沙大香肠",
                "openTime": "周一至周日 10:30-22:00",
                "phone": "13778134795",
                "poiId": "157835642"
            },
            {
                "Store_type": "11",
                "address": "涪城区跃进路6号长虹国际城一期19幢-1楼9号",
                "avgPrice": "25",
                "avgScore": "4.5",
                "hasFoodSafeInfo": "TRUE",
                "latitude": "31.468811",
                "longitude": "104.741562",
                "name": "芝根芝底PIZZA（长虹国际店）",
                "openTime": "周一至周日 10:00-22:00  2020-01-20至2020-01-31 休息",
                "phone": "0816-2366160/19949593135",
                "poiId": "194977919"
            },
            {
                "Store_type": "12",
                "address": "涪城区花园南街56-37号（米兰网咖隔壁）",
                "avgPrice": "54",
                "avgScore": "3",
                "hasFoodSafeInfo": "TRUE",
                "latitude": "31.454824",
                "longitude": "104.722239",
                "name": "马路边边麻辣烫（万达店）",
                "openTime": "周一至周日 09:30-04:00",
                "phone": "0816-2399799",
                "poiId": "171869864"
            },
            {
                "Store_type": "9",
                "address": "涪城区万达商业街9号6栋8号",
                "avgPrice": "49",
                "avgScore": "4.5",
                "hasFoodSafeInfo": "TRUE",
                "latitude": "31.453125",
                "longitude": "104.721214",
                "name": "巫山纸上烤鱼（万达店）",
                "openTime": "周一至周日 10:00-22:00  2020-01-23至2020-01-29 休息",
                "phone": "0816-2572515",
                "poiId": "90530711"
            },
            {
                "Store_type": "5",
                "address": "涪城区临园路东段新世界百货5楼",
                "avgPrice": "58",
                "avgScore": "3.7",
                "hasFoodSafeInfo": "TRUE",
                "latitude": "31.463896",
                "longitude": "104.742772",
                "name": "四喜炭烧屋（新世界百货店）",
                "openTime": "周一至周日 10:00-22:00  2020-01-24至2020-01-27 休息",
                "phone": "0816-2732698",
                "poiId": "163149827"
            },
            {
                "Store_type": "3",
                "address": "游仙区阳光路16号（汉仙桥夜市步行街中间）",
                "avgPrice": "19",
                "avgScore": "4.1",
                "hasFoodSafeInfo": "TRUE",
                "latitude": "31.48316",
                "longitude": "104.770248",
                "name": "一品居黄焖鸡米饭（游仙店）",
                "openTime": "周一至周日 09:00-23:00",
                "phone": "0816-6284189",
                "poiId": "92207391"
            },
            {
                "Store_type": "3",
                "address": "涪城区临园路东段通安巷内百味巷B-8号",
                "avgPrice": "19",
                "avgScore": "3.5",
                "hasFoodSafeInfo": "TRUE",
                "latitude": "31.462452",
                "longitude": "104.74022",
                "name": "喜记餐厅",
                "openTime": "周一至周日 10:30-21:30",
                "phone": "15281131433",
                "poiId": "191298860"
            },
            {
                "Store_type": "6",
                "address": "江油市李白大道南二段1号宝龙广场M-F3-004",
                "avgPrice": "44",
                "avgScore": "4.1",
                "hasFoodSafeInfo": "TRUE",
                "latitude": "31.749617",
                "longitude": "104.718149",
                "name": "一把骨（江油宝龙广场店）",
                "openTime": "周一至周日 11:00-22:00",
                "phone": "0816-3269188",
                "poiId": "185472099"
            },
            {
                "Store_type": "8",
                "address": "涪城区绵阳市涪城区跃进路6号长虹国际城16栋1-3号",
                "avgPrice": "26",
                "avgScore": "3.5",
                "hasFoodSafeInfo": "TRUE",
                "latitude": "31.469476",
                "longitude": "104.742814",
                "name": "炎煌煲仔小酒馆（国际城店）",
                "openTime": "周一至周日 10:00-22:00",
                "phone": "0816-6387722",
                "poiId": "1729963793"
            },
            {
                "Store_type": "17",
                "address": "涪城区普明南路133号",
                "avgPrice": "40",
                "avgScore": "3.8",
                "hasFoodSafeInfo": "TRUE",
                "latitude": "31.471144",
                "longitude": "104.674244",
                "name": "春风里养身汤锅店",
                "openTime": "周一至周日 11:00-14:00 17:00-22:00",
                "phone": "15882840691",
                "poiId": "164377373"
            },
            {
                "Store_type": "6",
                "address": "涪城区万达广场三楼",
                "avgPrice": "60",
                "avgScore": "3.5",
                "hasFoodSafeInfo": "FALSE",
                "latitude": "31.453356",
                "longitude": "104.720127",
                "name": "小番家成都街头烤肉（涪城万达店）",
                "openTime": "周一至周日 10:30-22:00",
                "phone": "0816-6922669",
                "poiId": "1664388830"
            },
            {
                "Store_type": "16",
                "address": "涪城区跃进路50号1958三期21栋2号",
                "avgPrice": "56",
                "avgScore": "4.3",
                "hasFoodSafeInfo": "TRUE",
                "latitude": "31.476485",
                "longitude": "104.745161",
                "name": "守柴炉烤鸭（1958店）",
                "openTime": "周一至周日 10:00-22:00",
                "phone": "0816-2343488",
                "poiId": "1591076930"
            },
            {
                "Store_type": "12",
                "address": "涪城区三海路双圣小区A区47栋4号",
                "avgPrice": "35",
                "avgScore": "3.8",
                "hasFoodSafeInfo": "TRUE",
                "latitude": "31.461879",
                "longitude": "104.59789",
                "name": "三顾冒菜",
                "openTime": "周一至周日 10:00-21:00",
                "phone": "15008355242",
                "poiId": "182021096"
            },
            {
                "Store_type": "1",
                "address": "涪城区玉泉北路",
                "avgPrice": "66",
                "avgScore": "4.1",
                "hasFoodSafeInfo": "FALSE",
                "latitude": "31.484382",
                "longitude": "104.715645",
                "name": "味港·牛排火锅",
                "openTime": "周一至周日 11:00-22:00",
                "phone": "0816-2282889",
                "poiId": "194052313"
            },
            {
                "Store_type": "6",
                "address": "涪城区绵兴东路37号",
                "avgPrice": "57",
                "avgScore": "5",
                "hasFoodSafeInfo": "TRUE",
                "latitude": "31.462672",
                "longitude": "104.695819",
                "name": "93#时光印记网烧烤肉（双碑店）",
                "openTime": "周一至周日 10:00-23:30  2020-01-25至2020-01-27 休息",
                "phone": "0816-3535558",
                "poiId": "194623230"
            },
            {
                "Store_type": "4",
                "address": "涪城区红星街33号",
                "avgPrice": "10",
                "avgScore": "4.3",
                "hasFoodSafeInfo": "TRUE",
                "latitude": "31.458015",
                "longitude": "104.756102",
                "name": "浔茶（红星街店）",
                "openTime": "周一至周日 10:00-21:30",
                "phone": "15283830751",
                "poiId": "195898486"
            },
            {
                "Store_type": "5",
                "address": "涪城区花园南街6号",
                "avgPrice": "49",
                "avgScore": "4.7",
                "hasFoodSafeInfo": "FALSE",
                "latitude": "31.450596",
                "longitude": "104.714014",
                "name": "醉邛海大凉山特色网烧",
                "openTime": "周一至周日 11:00-02:00",
                "phone": "19114036045/18381693550",
                "poiId": "193836542"
            },
            {
                "Store_type": "1",
                "address": "涪城区文武西路南区花园底商",
                "avgPrice": "40",
                "avgScore": "4.3",
                "hasFoodSafeInfo": "TRUE",
                "latitude": "31.407469",
                "longitude": "104.762932",
                "name": "眷恋老火锅",
                "openTime": "周一至周日 11:00-23:00  2020-01-24至2020-01-31 休息",
                "phone": "13398399830",
                "poiId": "193441754"
            },
            {
                "Store_type": "1",
                "address": "游仙区一环路东段芙蓉汉城2期N39号",
                "avgPrice": "60",
                "avgScore": "4.7",
                "hasFoodSafeInfo": "TRUE",
                "latitude": "31.475444",
                "longitude": "104.770667",
                "name": "蜀大侠火锅（芙蓉汉城店）",
                "openTime": "周一至周日 10:00-22:30",
                "phone": "0816-2799858",
                "poiId": "156865550"
            },
            {
                "Store_type": "5",
                "address": "涪城区临园路西段90号新康花园7幢3-9号",
                "avgPrice": "36",
                "avgScore": "4.2",
                "hasFoodSafeInfo": "FALSE",
                "latitude": "31.45804",
                "longitude": "104.70674",
                "name": "农家八大碗特色烤全羊、烤羊排",
                "openTime": "周一至周日 全天",
                "phone": "0816-2209525",
                "poiId": "85182496"
            },
            {
                "Store_type": "9",
                "address": "涪城区警钟街30-1号",
                "avgPrice": "19",
                "avgScore": "5",
                "hasFoodSafeInfo": "FALSE",
                "latitude": "31.458201",
                "longitude": "104.754952",
                "name": "青桔和木鱼",
                "openTime": "周一至周日 10:00-22:00  2020-02-06至2020-02-29 10:00-19:00",
                "phone": "18048180233",
                "poiId": "535872908"
            },
            {
                "Store_type": "5",
                "address": "涪城区高水南街73号",
                "avgPrice": "48",
                "avgScore": "5",
                "hasFoodSafeInfo": "TRUE",
                "latitude": "31.488502",
                "longitude": "104.735186",
                "name": "憨起劲焖烤（平政店）",
                "openTime": "周一至周日 17:00-02:00",
                "phone": "13308118840",
                "poiId": "194899905"
            },
            {
                "Store_type": "1",
                "address": "涪城区火炬西街南段",
                "avgPrice": "195",
                "avgScore": "4.1",
                "hasFoodSafeInfo": "FALSE",
                "latitude": "31.458075",
                "longitude": "104.685456",
                "name": "鹿锦记全鹿锅",
                "openTime": "周一至周日 10:00-22:00",
                "phone": "15983613336",
                "poiId": "191106841"
            },
            {
                "Store_type": "3",
                "address": "涪城区九洲·又一城一期",
                "avgPrice": "50",
                "avgScore": "3.5",
                "hasFoodSafeInfo": "FALSE",
                "latitude": "31.46265",
                "longitude": "104.68769",
                "name": "荣耀岁月主题餐厅（高新旗舰店）",
                "openTime": "周一至周日 10:00-22:00",
                "phone": "0816-8772877/18280777778",
                "poiId": "1183114960"
            },
            {
                "Store_type": "12",
                "address": "涪城区高水南街长虹大道北段53号",
                "avgPrice": "50",
                "avgScore": "3",
                "hasFoodSafeInfo": "FALSE",
                "latitude": "31.488243",
                "longitude": "104.734751",
                "name": "重庆牛市口地摊麻辣烫（平政店）",
                "openTime": "周一至周日 09:30-23:00",
                "phone": "0816-6357377",
                "poiId": "186774858"
            },
            {
                "Store_type": "18",
                "address": "江油市江油市太华路北段24号",
                "avgPrice": "37",
                "avgScore": "4.9",
                "hasFoodSafeInfo": "FALSE",
                "latitude": "31.773385",
                "longitude": "104.732837",
                "name": "藕然间·專注藕湯",
                "openTime": "周一至周日 09:00-22:00",
                "phone": "0816-3257557/13458304616",
                "poiId": "185605262"
            },
            {
                "Store_type": "11",
                "address": "涪城区跃进路北段83号长虹世纪城二期36栋1层2号",
                "avgPrice": "20",
                "avgScore": "3.5",
                "hasFoodSafeInfo": "TRUE",
                "latitude": "31.492132",
                "longitude": "104.739183",
                "name": "K.F.G唛乐基汉堡炸鸡饮品",
                "openTime": "周一至周日 10:00-21:30",
                "phone": "13378161619",
                "poiId": "1566955500"
            },
            {
                "Store_type": "6",
                "address": "盐亭县s101万安社区9组",
                "avgPrice": "0",
                "avgScore": "3.5",
                "hasFoodSafeInfo": "TRUE",
                "latitude": "31.243608",
                "longitude": "105.405482",
                "name": "氧立方火盆小香猪",
                "openTime": "周一至周日 16:30-23:00",
                "phone": "0816-7327168/19113648841",
                "poiId": "1363099946"
            },
            {
                "Store_type": "1",
                "address": "涪城区上马西街（望蜀苑）65号",
                "avgPrice": "54",
                "avgScore": "4.5",
                "hasFoodSafeInfo": "FALSE",
                "latitude": "31.489603",
                "longitude": "104.697793",
                "name": "老佛爷铜炉蛙锅（绵阳旗舰店）",
                "openTime": "周一至周日 10:00-22:00  2020-01-24至2020-01-27 休息",
                "phone": "0816-2126999",
                "poiId": "1489524278"
            },
            {
                "Store_type": "1",
                "address": "游仙区涪松街57号",
                "avgPrice": "0",
                "avgScore": "3.5",
                "hasFoodSafeInfo": "TRUE",
                "latitude": "31.378618",
                "longitude": "104.84629",
                "name": "锅之恋鲜菜火锅（松垭店）",
                "openTime": "周一至周日 09:00-24:00",
                "phone": "0816-2660022",
                "poiId": "1413627115"
            },
            {
                "Store_type": "1",
                "address": "涪城区弘光路（小火焱对面2-6号）",
                "avgPrice": "40",
                "avgScore": "4.3",
                "hasFoodSafeInfo": "TRUE",
                "latitude": "31.45762",
                "longitude": "104.651311",
                "name": "宜知香特色串捞（奥莱店）",
                "openTime": "周一至周日 11:00-23:30",
                "phone": "0816-2666869/15228738873",
                "poiId": "192594497"
            },
            {
                "Store_type": "1",
                "address": "涪城区长虹大道北段35-2号",
                "avgPrice": "73",
                "avgScore": "3.5",
                "hasFoodSafeInfo": "FALSE",
                "latitude": "31.48509",
                "longitude": "104.739119",
                "name": "一花一叶蔬食火锅",
                "openTime": "周一至周日 10:00-22:00",
                "phone": "0816-2109288",
                "poiId": "994214680"
            },
            {
                "Store_type": "1",
                "address": "涪城区上马北街26号4栋8号",
                "avgPrice": "40",
                "avgScore": "3.9",
                "hasFoodSafeInfo": "FALSE",
                "latitude": "31.48955",
                "longitude": "104.69864",
                "name": "蜀德火锅（上马新村店）",
                "openTime": "周一至周日 10:00-22:00",
                "phone": "18280109650",
                "poiId": "839487122"
            },
            {
                "Store_type": "3",
                "address": "涪城区涪城金街花园路9号",
                "avgPrice": "16",
                "avgScore": "4.9",
                "hasFoodSafeInfo": "FALSE",
                "latitude": "31.453225",
                "longitude": "104.721326",
                "name": "锅先森台式卤肉饭",
                "openTime": "周一至周日 10:00-21:00",
                "phone": "13795779707",
                "poiId": "783761571"
            },
            {
                "Store_type": "1",
                "address": "涪城区涪城路169号（清真寺旁）",
                "avgPrice": "61",
                "avgScore": "4.5",
                "hasFoodSafeInfo": "TRUE",
                "latitude": "31.45646",
                "longitude": "104.75088",
                "name": "西蜀大宅门火锅（直营店）（涪城路店）",
                "openTime": "周一至周日 10:00-23:30  2020-01-24至2020-01-26 休息",
                "phone": "0816-2395758",
                "poiId": "40451323"
            },
            {
                "Store_type": "5",
                "address": "涪城区兴达街中环美食城禾悦烤肉旁",
                "avgPrice": "65",
                "avgScore": "5",
                "hasFoodSafeInfo": "FALSE",
                "latitude": "31.461471",
                "longitude": "104.752423",
                "name": "井牧炭火烧肉·花园餐吧",
                "openTime": "周一至周日 10:00-23:30  2020-01-23至2020-01-24 休息",
                "phone": "19960503250",
                "poiId": "753333092"
            },
            {
                "Store_type": "6",
                "address": "三台县北坝耀森路耀森花园休闲会所旁",
                "avgPrice": "55",
                "avgScore": "4.8",
                "hasFoodSafeInfo": "TRUE",
                "latitude": "31.101037",
                "longitude": "105.089346",
                "name": "晓倩家烤肉馆",
                "openTime": "周一至周日 09:00-22:00",
                "phone": "0816-5265558",
                "poiId": "52507372"
            },
            {
                "Store_type": "5",
                "address": "三台县学涪路滨江二期A区外滩花园酒店1楼",
                "avgPrice": "50",
                "avgScore": "4.5",
                "hasFoodSafeInfo": "TRUE",
                "latitude": "31.085855",
                "longitude": "105.098939",
                "name": "上雅烤肉吧",
                "openTime": "周一至周日 10:30-22:30",
                "phone": "15681912283",
                "poiId": "85940547"
            },
            {
                "Store_type": "9",
                "address": "涪城区花园路9号绵阳涪城万达广场12幢1单元1楼12号",
                "avgPrice": "66",
                "avgScore": "5",
                "hasFoodSafeInfo": "TRUE",
                "latitude": "31.455102",
                "longitude": "104.721755",
                "name": "蜀虾红（万达店）",
                "openTime": "春季、夏季、秋季 周一至周日 16:00-04:00  冬季 周一至周日 10:00-14:00 16:30-22:00",
                "phone": "13648111138/19949575534",
                "poiId": "193006556"
            },
            {
                "Store_type": "1",
                "address": "涪城区上马南街",
                "avgPrice": "45",
                "avgScore": "5",
                "hasFoodSafeInfo": "TRUE",
                "latitude": "31.487531",
                "longitude": "104.698956",
                "name": "泥巴小院市井火锅（绵阳旗舰店）",
                "openTime": "周一至周日 10:00-23:30",
                "phone": "18599996922/0816-2324866",
                "poiId": "745611667"
            },
            {
                "Store_type": "16",
                "address": "游仙区剑南路东段一环路东段173-4号",
                "avgPrice": "58",
                "avgScore": "4.4",
                "hasFoodSafeInfo": "TRUE",
                "latitude": "31.475276",
                "longitude": "104.770427",
                "name": "嘎嘎鸭脑壳",
                "openTime": "周一至周日 11:00-14:00 17:00-03:00  2020-01-23至2020-01-26 休息",
                "phone": "0816-2171122",
                "poiId": "193978949"
            },